,city,city,2020-03-04,2020-03-05,2020-03-06,2020-03-07,2020-03-08,2020-03-09,2020-03-10,2020-03-11,2020-03-12,2020-03-13,2020-03-14,2020-03-15,2020-03-16,2020-03-17,2020-03-18,2020-03-19,2020-03-20,2020-03-21,2020-03-22,2020-03-23,2020-03-24,2020-03-25,Latitude,Longitude
0,0,'s-Gravenhage,0.0,0.0,2.0,2.0,2.0,2.0,3.0,7.0,7.0,8.0,9.0,10.0,14.0,17.0,21.0,27.0,36.0,44.0,47.0,53.0,63.0,81.0,52.0799838,4.3113461
1,1,'s-Hertogenbosch,0.0,0.0,0.0,2.0,2.0,3.0,4.0,5.0,8.0,11.0,14.0,14.0,20.0,24.0,30.0,35.0,38.0,45.0,55.0,60.0,67.0,75.0,51.6889351,5.3031044
2,2,Aa en Hunze,0.0,0.0,0.0,0.0,0.0,0.0,0.0,0.0,0.0,0.0,0.0,0.0,0.0,0.0,0.0,0.0,0.0,0.0,1.0,1.0,1.0,1.0,52.9814393,6.729452061777957
3,3,Aalsmeer,0.0,0.0,0.0,0.0,0.0,0.0,2.0,2.0,2.0,3.0,3.0,3.0,3.0,3.0,3.0,4.0,5.0,5.0,7.0,8.0,9.0,10.0,52.2658344,4.766170039669312
4,4,Aalten,0.0,0.0,0.0,0.0,0.0,0.0,0.0,0.0,0.0,0.0,0.0,0.0,0.0,0.0,0.0,0.0,1.0,1.0,1.0,1.0,1.0,2.0,51.9285963,6.5810265
5,5,Achtkarspelen,0.0,0.0,0.0,0.0,0.0,0.0,0.0,0.0,0.0,0.0,0.0,0.0,0.0,0.0,0.0,0.0,0.0,0.0,0.0,0.0,0.0,1.0,53.207516749999996,6.150763705175438
6,6,Alblasserdam,0.0,0.0,0.0,0.0,0.0,0.0,0.0,0.0,0.0,0.0,0.0,0.0,0.0,1.0,1.0,2.0,3.0,3.0,4.0,4.0,4.0,5.0,51.8599524,4.666202275442476
7,7,Albrandswaard,0.0,0.0,0.0,0.0,1.0,1.0,1.0,1.0,1.0,1.0,1.0,1.0,2.0,3.0,4.0,4.0,5.0,8.0,12.0,14.0,18.0,18.0,51.8524269,4.435285362646326
8,8,Alkmaar,0.0,0.0,0.0,0.0,0.0,0.0,1.0,1.0,1.0,1.0,1.0,1.0,2.0,2.0,5.0,9.0,10.0,11.0,15.0,16.0,20.0,24.0,52.6312592,4.7503798
9,9,Almelo,0.0,0.0,0.0,0.0,1.0,1.0,1.0,1.0,1.0,1.0,1.0,1.0,1.0,1.0,1.0,2.0,3.0,4.0,5.0,7.0,8.0,10.0,52.3567956,6.66725277634109
10,10,Almere,0.0,0.0,1.0,1.0,1.0,1.0,1.0,1.0,1.0,1.0,2.0,2.0,3.0,3.0,4.0,5.0,5.0,11.0,14.0,18.0,21.0,28.0,52.375092,5.216168
11,11,Alphen aan den Rijn,1.0,1.0,1.0,1.0,1.0,1.0,1.0,2.0,3.0,4.0,6.0,6.0,6.0,6.0,9.0,10.0,13.0,15.0,17.0,17.0,20.0,22.0,52.1343369,4.6561357
12,12,Alphen-Chaam,0.0,0.0,0.0,0.0,0.0,0.0,0.0,0.0,0.0,0.0,1.0,1.0,2.0,3.0,6.0,6.0,6.0,7.0,9.0,14.0,15.0,16.0,51.50689565,4.871359861218567
13,13,Altena,3.0,4.0,4.0,4.0,4.0,4.0,4.0,4.0,5.0,8.0,9.0,10.0,12.0,12.0,15.0,19.0,19.0,22.0,23.0,25.0,28.0,35.0,51.81456,4.99468
14,14,Ameland,0.0,0.0,0.0,0.0,0.0,0.0,0.0,0.0,0.0,0.0,0.0,0.0,0.0,0.0,0.0,0.0,0.0,0.0,0.0,0.0,0.0,0.0,53.44624,5.68601
15,15,Amersfoort,0.0,0.0,0.0,0.0,0.0,0.0,0.0,2.0,4.0,4.0,4.0,10.0,18.0,21.0,23.0,30.0,32.0,37.0,37.0,41.0,44.0,47.0,52.163773899999995,5.3965879493517015
16,16,Amstelveen,0.0,0.0,0.0,1.0,1.0,2.0,2.0,2.0,2.0,3.0,3.0,3.0,4.0,6.0,7.0,13.0,22.0,26.0,27.0,29.0,33.0,35.0,52.2862177,4.852649259746028
17,17,Amsterdam,1.0,2.0,2.0,3.0,6.0,4.0,8.0,8.0,11.0,20.0,31.0,31.0,39.0,56.0,61.0,85.0,127.0,161.0,188.0,203.0,250.0,297.0,52.3727598,4.8936041
18,18,Apeldoorn,0.0,0.0,0.0,0.0,0.0,0.0,0.0,1.0,2.0,2.0,3.0,3.0,7.0,7.0,10.0,11.0,13.0,16.0,17.0,26.0,29.0,34.0,52.2156457,5.9639485
19,19,Appingedam,0.0,0.0,0.0,0.0,0.0,0.0,0.0,0.0,0.0,0.0,0.0,0.0,0.0,0.0,0.0,0.0,0.0,0.0,0.0,0.0,0.0,0.0,53.318725150000006,6.844171069672516
20,20,Arnhem,0.0,0.0,1.0,1.0,3.0,2.0,2.0,3.0,4.0,4.0,4.0,7.0,7.0,8.0,9.0,10.0,13.0,15.0,16.0,20.0,23.0,25.0,51.984257,5.9108573
21,21,Assen,0.0,0.0,0.0,0.0,0.0,0.0,0.0,0.0,0.0,0.0,0.0,0.0,0.0,0.0,0.0,0.0,1.0,1.0,2.0,4.0,5.0,5.0,52.9953538,6.560553
22,22,Asten,0.0,0.0,0.0,0.0,0.0,0.0,0.0,0.0,0.0,0.0,0.0,1.0,1.0,2.0,2.0,2.0,2.0,5.0,5.0,5.0,6.0,6.0,51.404091,5.7458688
23,23,Baarle-Nassau,0.0,0.0,0.0,0.0,0.0,0.0,0.0,0.0,0.0,0.0,0.0,0.0,0.0,0.0,0.0,0.0,1.0,1.0,1.0,1.0,1.0,2.0,51.4432069,4.930569
24,24,Baarn,0.0,0.0,0.0,0.0,0.0,0.0,0.0,0.0,0.0,0.0,0.0,0.0,0.0,0.0,0.0,2.0,1.0,1.0,1.0,2.0,2.0,4.0,52.2002549,5.269143393313942
25,25,Barendrecht,0.0,0.0,0.0,0.0,0.0,0.0,0.0,0.0,1.0,1.0,1.0,3.0,3.0,3.0,3.0,4.0,5.0,9.0,10.0,13.0,15.0,16.0,51.85193795,4.52938352520747
26,26,Barneveld,0.0,0.0,0.0,0.0,0.0,0.0,0.0,0.0,0.0,0.0,0.0,2.0,3.0,4.0,5.0,6.0,8.0,8.0,9.0,10.0,12.0,13.0,52.142479,5.5866392
27,27,Beek,0.0,0.0,0.0,0.0,0.0,0.0,0.0,0.0,0.0,0.0,0.0,3.0,3.0,3.0,3.0,3.0,5.0,5.0,5.0,5.0,9.0,13.0,50.9413527,5.7977204
28,28,Beekdaelen,0.0,0.0,1.0,2.0,2.0,4.0,5.0,8.0,8.0,8.0,9.0,12.0,13.0,15.0,18.0,18.0,19.0,19.0,19.0,20.0,29.0,30.0,50.93449595,5.88869051100548
29,29,Beemster,0.0,0.0,0.0,0.0,0.0,0.0,0.0,0.0,0.0,0.0,0.0,0.0,0.0,0.0,0.0,0.0,0.0,0.0,0.0,0.0,1.0,2.0,52.56245505,4.919867904155717
30,30,Beesel,0.0,0.0,0.0,0.0,0.0,0.0,0.0,0.0,0.0,0.0,0.0,0.0,0.0,0.0,0.0,0.0,1.0,3.0,5.0,5.0,6.0,7.0,51.2688217,6.0416706
31,31,Berg en Dal,0.0,0.0,0.0,0.0,0.0,0.0,1.0,3.0,3.0,5.0,6.0,6.0,10.0,14.0,14.0,18.0,20.0,25.0,30.0,33.0,35.0,37.0,51.825911,5.9100697
32,32,Bergeijk,0.0,0.0,0.0,0.0,0.0,0.0,0.0,1.0,1.0,1.0,1.0,1.0,1.0,1.0,1.0,1.0,1.0,1.0,1.0,3.0,5.0,10.0,51.30452025,5.318413747169572
33,33,Bergen (L),0.0,0.0,0.0,0.0,0.0,0.0,0.0,0.0,0.0,0.0,0.0,0.0,0.0,0.0,1.0,1.0,1.0,1.0,1.0,1.0,1.0,1.0,51.6012568,6.0469005
34,34,Bergen (NH),0.0,0.0,0.0,0.0,0.0,0.0,0.0,0.0,0.0,0.0,1.0,1.0,1.0,1.0,2.0,4.0,4.0,6.0,8.0,9.0,12.0,12.0,52.66725715,4.697223541303441
35,35,Bergen op Zoom,0.0,0.0,0.0,0.0,1.0,1.0,1.0,1.0,1.0,1.0,1.0,4.0,4.0,5.0,5.0,6.0,8.0,9.0,10.0,12.0,12.0,12.0,51.4965864,4.289740797263708
36,36,Berkelland,0.0,0.0,0.0,0.0,0.0,0.0,0.0,0.0,0.0,0.0,0.0,0.0,0.0,0.0,0.0,1.0,1.0,1.0,1.0,2.0,2.0,2.0,52.10152,6.618404626883939
37,37,Bernheze,0.0,0.0,0.0,1.0,1.0,2.0,2.0,2.0,4.0,13.0,15.0,16.0,19.0,20.0,26.0,30.0,37.0,41.0,57.0,62.0,67.0,69.0,51.683532850000006,5.521242816477055
38,38,Best,0.0,1.0,1.0,1.0,2.0,2.0,2.0,3.0,3.0,3.0,3.0,3.0,4.0,5.0,6.0,6.0,8.0,11.0,14.0,14.0,17.0,19.0,51.510017,5.398661990056466
39,39,Beuningen,0.0,0.0,1.0,1.0,5.0,3.0,3.0,3.0,3.0,3.0,4.0,4.0,5.0,6.0,6.0,6.0,8.0,9.0,11.0,12.0,13.0,15.0,51.8586611,5.767357
40,40,Beverwijk,1.0,2.0,2.0,3.0,4.0,4.0,4.0,4.0,5.0,5.0,5.0,5.0,5.0,6.0,6.0,6.0,6.0,6.0,7.0,7.0,11.0,11.0,52.478626,4.6732036218509
41,41,Bladel,0.0,0.0,0.0,0.0,0.0,0.0,0.0,0.0,0.0,0.0,1.0,1.0,1.0,1.0,2.0,3.0,6.0,7.0,11.0,12.0,14.0,15.0,51.3667765,5.2154317
42,42,Blaricum,1.0,1.0,1.0,1.0,1.0,1.0,1.0,1.0,1.0,1.0,1.0,1.0,1.0,1.0,2.0,2.0,3.0,4.0,4.0,4.0,4.0,5.0,52.281133749999995,5.29371090566366
43,43,Bloemendaal,0.0,0.0,0.0,1.0,1.0,1.0,1.0,1.0,1.0,1.0,1.0,1.0,1.0,3.0,3.0,3.0,3.0,8.0,8.0,11.0,13.0,13.0,52.4036594,4.6197687
44,44,Bodegraven-Reeuwijk,0.0,0.0,0.0,0.0,0.0,0.0,0.0,0.0,1.0,1.0,1.0,1.0,1.0,1.0,1.0,1.0,1.0,3.0,5.0,5.0,5.0,5.0,52.0677553,4.7575800066386025
45,45,Boekel,0.0,0.0,0.0,0.0,1.0,1.0,2.0,7.0,8.0,11.0,12.0,12.0,14.0,14.0,19.0,20.0,25.0,32.0,37.0,40.0,42.0,42.0,51.6029009,5.6726793
46,46,Borger-Odoorn,0.0,0.0,0.0,0.0,0.0,0.0,0.0,0.0,0.0,0.0,0.0,0.0,0.0,0.0,0.0,0.0,0.0,0.0,0.0,0.0,0.0,0.0,52.9000925,6.8821614819282875
47,47,Borne,0.0,1.0,1.0,2.0,3.0,3.0,3.0,3.0,2.0,3.0,3.0,3.0,3.0,3.0,3.0,3.0,3.0,4.0,5.0,7.0,8.0,11.0,52.3005,6.7555
48,48,Borsele,0.0,0.0,0.0,0.0,0.0,0.0,0.0,1.0,1.0,1.0,1.0,1.0,2.0,2.0,2.0,3.0,3.0,3.0,3.0,3.0,4.0,5.0,51.42891125,3.8358844144895325
49,49,Boxmeer,0.0,0.0,0.0,0.0,0.0,0.0,0.0,0.0,0.0,1.0,1.0,1.0,1.0,1.0,2.0,2.0,5.0,6.0,7.0,7.0,9.0,9.0,51.6486483,5.9450972
50,50,Boxtel,0.0,0.0,0.0,0.0,0.0,0.0,0.0,0.0,1.0,1.0,2.0,2.0,3.0,5.0,5.0,6.0,6.0,11.0,12.0,12.0,15.0,15.0,51.593711,5.3278263
51,51,Breda,0.0,0.0,2.0,2.0,16.0,19.0,27.0,32.0,42.0,53.0,64.0,71.0,86.0,96.0,105.0,113.0,121.0,133.0,140.0,161.0,167.0,181.0,51.5887845,4.7760237
52,52,Brielle,0.0,0.0,0.0,0.0,0.0,0.0,0.0,0.0,0.0,0.0,0.0,0.0,0.0,0.0,0.0,1.0,1.0,1.0,1.0,1.0,1.0,1.0,51.907479,4.167086176739853
53,53,Bronckhorst,0.0,0.0,1.0,1.0,2.0,2.0,2.0,2.0,2.0,2.0,2.0,2.0,2.0,2.0,2.0,3.0,5.0,6.0,6.0,6.0,7.0,7.0,52.0529087,6.269274781349422
54,54,Brummen,0.0,0.0,0.0,0.0,0.0,0.0,0.0,0.0,0.0,0.0,0.0,0.0,0.0,0.0,0.0,1.0,1.0,1.0,1.0,4.0,4.0,4.0,52.087327,6.1568633
55,55,Brunssum,0.0,0.0,0.0,0.0,0.0,0.0,0.0,0.0,0.0,0.0,0.0,0.0,0.0,2.0,4.0,4.0,6.0,6.0,6.0,8.0,17.0,20.0,50.943821549999996,5.974825084719281
56,56,Bunnik,0.0,0.0,0.0,0.0,0.0,0.0,0.0,0.0,0.0,0.0,0.0,0.0,0.0,0.0,0.0,1.0,2.0,3.0,3.0,4.0,6.0,8.0,52.0663713,5.1940676
57,57,Bunschoten,0.0,0.0,0.0,0.0,0.0,0.0,0.0,0.0,0.0,0.0,0.0,0.0,0.0,0.0,0.0,0.0,0.0,0.0,0.0,0.0,1.0,3.0,52.2391743,5.3734101
58,58,Buren,0.0,0.0,0.0,0.0,0.0,0.0,0.0,0.0,1.0,2.0,2.0,2.0,4.0,4.0,4.0,5.0,5.0,5.0,5.0,5.0,6.0,7.0,51.9112553,5.3338217
59,59,Capelle aan den IJssel,0.0,0.0,0.0,0.0,0.0,0.0,0.0,0.0,0.0,0.0,0.0,0.0,0.0,1.0,1.0,2.0,3.0,3.0,7.0,7.0,13.0,23.0,51.935853800000004,4.589460935511152
60,60,Castricum,0.0,0.0,0.0,0.0,0.0,0.0,0.0,0.0,0.0,0.0,4.0,5.0,5.0,5.0,5.0,6.0,6.0,7.0,8.0,8.0,10.0,10.0,52.558830549999996,4.639675526200153
61,61,Coevorden,2.0,3.0,3.0,3.0,7.0,9.0,11.0,11.0,11.0,11.0,11.0,11.0,11.0,11.0,12.0,12.0,13.0,14.0,14.0,14.0,15.0,15.0,52.65266925,6.739318887009727
62,62,Cranendonck,0.0,0.0,0.0,0.0,0.0,0.0,0.0,1.0,1.0,2.0,2.0,2.0,2.0,5.0,6.0,6.0,8.0,11.0,13.0,19.0,23.0,25.0,51.286919,5.5810952873530475
63,63,Cuijk,0.0,0.0,0.0,0.0,0.0,0.0,0.0,1.0,1.0,2.0,2.0,2.0,2.0,2.0,2.0,4.0,4.0,4.0,4.0,5.0,6.0,8.0,51.729939,5.8800458
64,64,Culemborg,0.0,1.0,1.0,1.0,1.0,1.0,1.0,1.0,1.0,2.0,2.0,2.0,2.0,4.0,4.0,4.0,4.0,5.0,5.0,5.0,8.0,8.0,51.94933145,5.209215183621777
65,65,Dalfsen,0.0,0.0,0.0,0.0,0.0,0.0,0.0,0.0,0.0,0.0,0.0,1.0,1.0,1.0,1.0,1.0,4.0,5.0,8.0,9.0,11.0,12.0,52.5111721,6.253911
66,66,Dantumadiel,0.0,0.0,0.0,0.0,0.0,0.0,0.0,0.0,0.0,0.0,0.0,0.0,0.0,0.0,0.0,0.0,0.0,0.0,0.0,0.0,0.0,0.0,53.27651665,5.967811226529737
67,67,De Bilt,0.0,2.0,3.0,6.0,6.0,6.0,6.0,10.0,11.0,11.0,11.0,12.0,13.0,15.0,16.0,16.0,18.0,19.0,20.0,23.0,27.0,32.0,52.1097009,5.178706
68,68,De Fryske Marren,0.0,0.0,0.0,0.0,0.0,0.0,0.0,0.0,1.0,2.0,2.0,3.0,3.0,3.0,5.0,5.0,6.0,8.0,8.0,8.0,8.0,9.0,52.9118448,5.713876378916552
69,69,De Ronde Venen,0.0,0.0,0.0,0.0,0.0,0.0,0.0,0.0,0.0,0.0,0.0,0.0,2.0,2.0,2.0,2.0,3.0,3.0,4.0,6.0,8.0,9.0,52.2325145,4.920240947843794
70,70,De Wolden,0.0,0.0,0.0,0.0,0.0,0.0,0.0,0.0,0.0,0.0,1.0,1.0,1.0,1.0,1.0,1.0,2.0,3.0,3.0,3.0,3.0,3.0,52.70557745,6.338954173954216
71,71,Delft,1.0,1.0,1.0,1.0,1.0,1.0,1.0,1.0,1.0,2.0,2.0,2.0,2.0,2.0,4.0,5.0,9.0,11.0,12.0,16.0,17.0,21.0,52.0114017,4.35839
72,72,Delfzijl,0.0,0.0,0.0,0.0,0.0,0.0,0.0,0.0,0.0,0.0,0.0,0.0,0.0,0.0,0.0,0.0,0.0,0.0,0.0,1.0,1.0,1.0,53.380921799999996,6.931098359661039
73,73,Den Helder,0.0,0.0,0.0,0.0,0.0,0.0,0.0,1.0,1.0,1.0,1.0,1.0,1.0,1.0,1.0,2.0,2.0,3.0,3.0,4.0,5.0,5.0,52.95738,4.7585
74,74,Deurne,0.0,0.0,0.0,0.0,1.0,1.0,1.0,3.0,3.0,3.0,3.0,4.0,5.0,8.0,8.0,10.0,13.0,19.0,22.0,22.0,25.0,30.0,51.4611926,5.7914611
75,75,Deventer,0.0,0.0,0.0,0.0,0.0,0.0,0.0,0.0,0.0,0.0,0.0,1.0,2.0,4.0,5.0,5.0,7.0,16.0,16.0,17.0,20.0,26.0,52.2532272,6.1584725
76,76,Diemen,2.0,2.0,2.0,2.0,0.0,2.0,2.0,2.0,2.0,2.0,2.0,2.0,2.0,2.0,2.0,2.0,3.0,3.0,4.0,4.0,4.0,6.0,52.3350493,4.984282926187014
77,77,Dinkelland,0.0,0.0,0.0,1.0,2.0,2.0,2.0,2.0,1.0,3.0,4.0,4.0,5.0,5.0,6.0,8.0,9.0,13.0,14.0,15.0,17.0,20.0,52.36870775,7.05188649679054
78,78,Doesburg,0.0,0.0,0.0,0.0,0.0,0.0,0.0,0.0,0.0,0.0,0.0,1.0,1.0,1.0,1.0,1.0,3.0,3.0,4.0,4.0,4.0,5.0,52.018750499999996,6.151558274308546
79,79,Doetinchem,0.0,0.0,0.0,0.0,0.0,0.0,0.0,0.0,0.0,0.0,0.0,0.0,0.0,0.0,0.0,3.0,4.0,5.0,5.0,6.0,8.0,10.0,51.9655192,6.2891093
80,80,Dongen,0.0,1.0,1.0,2.0,3.0,3.0,3.0,4.0,4.0,4.0,5.0,5.0,5.0,5.0,5.0,5.0,2.0,2.0,2.0,2.0,4.0,6.0,51.6247384,4.9366784
81,81,Dordrecht,0.0,0.0,0.0,0.0,0.0,0.0,0.0,0.0,0.0,1.0,1.0,1.0,1.0,4.0,4.0,8.0,11.0,12.0,13.0,17.0,23.0,26.0,51.7958812,4.6779351
82,82,Drechterland,0.0,0.0,0.0,0.0,0.0,0.0,0.0,0.0,0.0,0.0,0.0,0.0,0.0,0.0,0.0,0.0,0.0,2.0,2.0,2.0,3.0,3.0,52.65570515,5.185359460663441
83,83,Drimmelen,0.0,0.0,0.0,0.0,0.0,0.0,0.0,1.0,3.0,5.0,5.0,5.0,7.0,11.0,12.0,13.0,13.0,14.0,14.0,16.0,17.0,20.0,51.7081516,4.8046508
84,84,Dronten,0.0,0.0,0.0,0.0,0.0,0.0,0.0,0.0,0.0,2.0,3.0,6.0,7.0,7.0,8.0,9.0,10.0,11.0,10.0,11.0,11.0,11.0,52.53172775,5.75053478514506
85,85,Druten,0.0,0.0,0.0,0.0,0.0,0.0,0.0,0.0,0.0,1.0,3.0,5.0,5.0,5.0,5.0,5.0,5.0,5.0,5.0,6.0,6.0,7.0,51.88473605,5.600426583452027
86,86,Duiven,0.0,0.0,0.0,0.0,0.0,0.0,0.0,0.0,0.0,1.0,1.0,1.0,1.0,1.0,2.0,2.0,2.0,2.0,2.0,2.0,2.0,2.0,51.9495859,6.024594
87,87,Echt-Susteren,0.0,0.0,0.0,0.0,0.0,0.0,0.0,0.0,0.0,0.0,0.0,0.0,0.0,2.0,6.0,6.0,7.0,11.0,12.0,14.0,15.0,20.0,51.082135199999996,5.899125547533698
88,88,Edam-Volendam,0.0,0.0,0.0,0.0,0.0,0.0,0.0,0.0,0.0,0.0,0.0,0.0,0.0,0.0,0.0,3.0,3.0,4.0,5.0,6.0,7.0,9.0,52.54861165,5.026615664206329
89,89,Ede,0.0,0.0,0.0,0.0,1.0,0.0,0.0,0.0,0.0,0.0,0.0,1.0,2.0,2.0,5.0,5.0,9.0,13.0,16.0,21.0,22.0,26.0,52.0458265,5.6702011
90,90,Eemnes,0.0,0.0,0.0,0.0,0.0,0.0,0.0,0.0,0.0,0.0,0.0,0.0,0.0,0.0,1.0,1.0,1.0,1.0,1.0,1.0,1.0,1.0,52.2547415,5.286070995513654
91,91,Eersel,0.0,0.0,0.0,0.0,0.0,0.0,0.0,0.0,1.0,1.0,2.0,2.0,2.0,3.0,4.0,4.0,6.0,7.0,9.0,10.0,13.0,13.0,51.3586373,5.3201315
92,92,Eijsden-Margraten,0.0,0.0,0.0,0.0,0.0,0.0,0.0,0.0,0.0,0.0,1.0,3.0,4.0,4.0,4.0,4.0,6.0,6.0,6.0,7.0,15.0,20.0,50.804994199999996,5.768281652884866
93,93,Eindhoven,1.0,3.0,4.0,4.0,6.0,7.0,8.0,8.0,8.0,12.0,13.0,21.0,21.0,22.0,23.0,24.0,28.0,35.0,46.0,55.0,68.0,80.0,51.44855695,5.450122521857143
94,94,Elburg,0.0,0.0,0.0,0.0,0.0,0.0,0.0,0.0,0.0,1.0,1.0,1.0,1.0,1.0,1.0,1.0,2.0,2.0,3.0,4.0,4.0,5.0,52.44875,5.83334
95,95,Emmen,0.0,0.0,0.0,0.0,1.0,1.0,1.0,1.0,1.0,1.0,1.0,1.0,1.0,1.0,2.0,3.0,4.0,4.0,4.0,6.0,7.0,8.0,52.788937,6.8939001
96,96,Enkhuizen,0.0,0.0,0.0,0.0,0.0,0.0,0.0,0.0,0.0,0.0,0.0,0.0,1.0,1.0,1.0,5.0,5.0,6.0,7.0,8.0,10.0,13.0,52.7577195,5.320694082212098
97,97,Enschede,0.0,0.0,0.0,0.0,0.0,0.0,0.0,1.0,3.0,3.0,3.0,3.0,3.0,3.0,4.0,7.0,8.0,16.0,18.0,20.0,20.0,26.0,52.2209855,6.8940537
98,98,Epe,0.0,0.0,0.0,0.0,0.0,0.0,0.0,0.0,0.0,0.0,0.0,0.0,2.0,2.0,4.0,4.0,4.0,6.0,8.0,10.0,13.0,15.0,52.34781,5.98399
99,99,Ermelo,0.0,0.0,0.0,0.0,0.0,0.0,1.0,1.0,3.0,4.0,5.0,7.0,8.0,8.0,8.0,8.0,9.0,11.0,13.0,13.0,14.0,17.0,52.30015,5.62302
100,100,Etten-Leur,0.0,0.0,0.0,0.0,0.0,1.0,3.0,5.0,5.0,6.0,7.0,8.0,10.0,12.0,13.0,14.0,15.0,18.0,20.0,24.0,24.0,31.0,51.57593705,4.6432215835526325
101,101,Geertruidenberg,0.0,0.0,0.0,0.0,0.0,0.0,0.0,1.0,1.0,1.0,1.0,1.0,3.0,5.0,7.0,7.0,7.0,7.0,8.0,10.0,10.0,11.0,51.7010947,4.8597583
102,102,Geldrop-Mierlo,0.0,0.0,0.0,0.0,0.0,0.0,0.0,0.0,1.0,2.0,2.0,2.0,3.0,3.0,3.0,4.0,4.0,6.0,6.0,8.0,9.0,15.0,51.43182315,5.5918099053219965
103,103,Gemert-Bakel,0.0,1.0,1.0,1.0,1.0,1.0,2.0,4.0,7.0,11.0,13.0,16.0,20.0,25.0,26.0,31.0,36.0,42.0,50.0,56.0,64.0,68.0,51.5410462,5.755361244704551
104,104,Gennep,0.0,0.0,0.0,0.0,0.0,0.0,0.0,0.0,0.0,1.0,1.0,1.0,1.0,1.0,2.0,4.0,4.0,5.0,7.0,7.0,7.0,7.0,51.700959999999995,5.9678631520832495
105,105,Gilze en Rijen,0.0,0.0,0.0,0.0,0.0,0.0,0.0,0.0,0.0,1.0,1.0,1.0,1.0,1.0,3.0,5.0,7.0,7.0,12.0,13.0,16.0,18.0,51.56323905,4.913039391005126
106,106,Goeree-Overflakkee,0.0,0.0,0.0,0.0,0.0,0.0,0.0,0.0,0.0,1.0,1.0,2.0,4.0,5.0,7.0,8.0,14.0,16.0,25.0,36.0,43.0,44.0,51.7525798,4.1224115085591055
107,107,Goes,0.0,0.0,0.0,0.0,0.0,0.0,1.0,2.0,2.0,2.0,2.0,2.0,2.0,2.0,3.0,3.0,3.0,3.0,3.0,3.0,4.0,4.0,51.503979,3.89029
108,108,Goirle,0.0,0.0,0.0,0.0,1.0,4.0,4.0,6.0,6.0,6.0,6.0,6.0,9.0,9.0,9.0,11.0,11.0,12.0,13.0,13.0,16.0,18.0,51.5239585,5.0661977
109,109,Gooise Meren,1.0,1.0,2.0,2.0,2.0,2.0,2.0,3.0,3.0,3.0,4.0,4.0,4.0,9.0,9.0,10.0,10.0,11.0,11.0,11.0,12.0,18.0,52.322224000000006,5.104556785563771
110,110,Gorinchem,0.0,0.0,0.0,0.0,0.0,0.0,0.0,0.0,0.0,0.0,0.0,0.0,0.0,0.0,0.0,1.0,0.0,0.0,2.0,2.0,4.0,8.0,51.8421872,4.974600467260094
111,111,Gouda,0.0,0.0,0.0,0.0,0.0,0.0,1.0,2.0,2.0,2.0,2.0,3.0,4.0,5.0,7.0,9.0,10.0,12.0,15.0,16.0,17.0,18.0,52.018119350000006,4.711122134697802
112,112,Grave,0.0,0.0,0.0,0.0,0.0,0.0,0.0,0.0,0.0,0.0,0.0,0.0,0.0,0.0,1.0,2.0,4.0,6.0,10.0,11.0,11.0,11.0,51.75787,3.89029
113,113,Groningen,0.0,0.0,0.0,0.0,0.0,0.0,0.0,0.0,2.0,3.0,3.0,6.0,7.0,7.0,11.0,23.0,28.0,39.0,46.0,53.0,53.0,58.0,53.2190652,6.5680077
114,114,Gulpen-Wittem,0.0,0.0,0.0,0.0,0.0,0.0,0.0,0.0,0.0,0.0,0.0,1.0,2.0,2.0,2.0,2.0,2.0,2.0,2.0,2.0,4.0,5.0,50.79962605,5.890529675273097
115,115,Haaksbergen,0.0,0.0,0.0,0.0,0.0,0.0,0.0,0.0,0.0,0.0,0.0,1.0,1.0,1.0,1.0,1.0,1.0,1.0,3.0,3.0,3.0,3.0,52.16212075,6.775353827101859
116,116,Haaren,0.0,0.0,0.0,0.0,0.0,2.0,2.0,6.0,6.0,7.0,7.0,7.0,7.0,7.0,9.0,9.0,9.0,10.0,12.0,12.0,12.0,12.0,51.6036127,5.2272278
117,117,Haarlem,1.0,1.0,1.0,1.0,2.0,2.0,1.0,1.0,1.0,4.0,4.0,4.0,6.0,7.0,7.0,10.0,17.0,25.0,27.0,29.0,41.0,46.0,52.3885317,4.6388048
118,118,Haarlemmermeer,0.0,0.0,0.0,0.0,0.0,0.0,0.0,0.0,0.0,0.0,0.0,1.0,2.0,4.0,4.0,5.0,8.0,12.0,16.0,18.0,23.0,23.0,52.3238421,4.715261248876009
119,119,Halderberge,0.0,0.0,0.0,0.0,0.0,0.0,0.0,0.0,0.0,0.0,0.0,0.0,2.0,2.0,2.0,2.0,2.0,5.0,7.0,7.0,8.0,8.0,51.58976405,4.513483321011281
120,120,Hardenberg,0.0,0.0,0.0,0.0,0.0,0.0,0.0,0.0,0.0,0.0,0.0,0.0,0.0,0.0,0.0,0.0,1.0,3.0,3.0,4.0,6.0,7.0,52.5754706,6.6188242
121,121,Harderwijk,0.0,0.0,0.0,0.0,0.0,0.0,0.0,0.0,2.0,2.0,2.0,2.0,4.0,4.0,5.0,5.0,5.0,5.0,6.0,8.0,9.0,13.0,52.33599915,5.640271521392062
122,122,Hardinxveld-Giessendam,1.0,2.0,4.0,4.0,4.0,4.0,5.0,5.0,5.0,5.0,5.0,5.0,5.0,5.0,5.0,5.0,6.0,6.0,6.0,6.0,6.0,6.0,51.83862405,4.824610423909343
123,123,Harlingen,0.0,0.0,0.0,0.0,0.0,0.0,0.0,0.0,0.0,0.0,0.0,0.0,1.0,1.0,1.0,1.0,1.0,3.0,3.0,3.0,3.0,3.0,53.17364,5.42087
124,124,Hattem,0.0,0.0,0.0,0.0,0.0,0.0,0.0,0.0,0.0,0.0,0.0,0.0,0.0,0.0,0.0,0.0,0.0,1.0,1.0,1.0,2.0,3.0,52.476711699999996,6.061913261141655
125,125,Heemskerk,0.0,0.0,0.0,0.0,0.0,0.0,0.0,0.0,0.0,1.0,1.0,1.0,2.0,2.0,2.0,3.0,5.0,5.0,5.0,5.0,7.0,9.0,52.51011775,4.635060887073173
126,126,Heemstede,0.0,0.0,0.0,0.0,1.0,1.0,1.0,1.0,2.0,2.0,2.0,2.0,5.0,5.0,5.0,5.0,7.0,11.0,11.0,13.0,16.0,17.0,52.3427475,4.618043843137004
127,127,Heerde,0.0,0.0,0.0,0.0,0.0,0.0,0.0,0.0,0.0,0.0,0.0,0.0,2.0,3.0,3.0,4.0,5.0,9.0,9.0,13.0,15.0,19.0,52.3896323,6.0393181
128,128,Heerenveen,0.0,0.0,0.0,0.0,0.0,0.0,0.0,0.0,0.0,0.0,0.0,0.0,0.0,0.0,0.0,0.0,1.0,2.0,2.0,3.0,3.0,3.0,52.9568246,5.9270052
129,129,Heerhugowaard,0.0,0.0,0.0,0.0,0.0,0.0,0.0,0.0,0.0,0.0,0.0,1.0,1.0,1.0,2.0,2.0,3.0,5.0,8.0,10.0,15.0,16.0,52.6780162,4.851688593963786
130,130,Heerlen,0.0,0.0,0.0,0.0,0.0,0.0,0.0,1.0,2.0,2.0,4.0,5.0,6.0,8.0,14.0,15.0,18.0,19.0,24.0,29.0,46.0,53.0,50.87627725,5.982795215474173
131,131,Heeze-Leende,0.0,0.0,0.0,0.0,0.0,0.0,0.0,1.0,1.0,1.0,1.0,1.0,2.0,3.0,4.0,4.0,4.0,4.0,7.0,7.0,7.0,10.0,51.35863595,5.577977300926967
132,132,Heiloo,0.0,0.0,0.0,0.0,0.0,0.0,0.0,0.0,0.0,2.0,2.0,2.0,3.0,3.0,3.0,3.0,3.0,4.0,6.0,6.0,8.0,9.0,52.60192475,4.70503175175436
133,133,Hellendoorn,0.0,0.0,0.0,1.0,2.0,2.0,2.0,2.0,2.0,2.0,2.0,2.0,2.0,2.0,2.0,2.0,2.0,3.0,4.0,5.0,6.0,7.0,52.3901258,6.447899
134,134,Hellevoetsluis,0.0,0.0,0.0,0.0,0.0,0.0,0.0,0.0,1.0,1.0,1.0,1.0,1.0,1.0,1.0,1.0,4.0,4.0,4.0,5.0,5.0,5.0,51.8433469,4.121302772091925
135,135,Helmond,4.0,4.0,4.0,4.0,5.0,7.0,11.0,12.0,14.0,16.0,17.0,17.0,17.0,19.0,20.0,22.0,26.0,32.0,38.0,49.0,55.0,63.0,51.47356795,5.6671089885064525
136,136,Hendrik-Ido-Ambacht,0.0,0.0,0.0,0.0,0.0,0.0,0.0,0.0,0.0,0.0,0.0,0.0,0.0,0.0,0.0,0.0,0.0,0.0,1.0,2.0,2.0,3.0,51.84664995,4.634280416662918
137,137,Hengelo (O),0.0,0.0,0.0,0.0,0.0,0.0,0.0,0.0,0.0,0.0,0.0,0.0,3.0,3.0,4.0,4.0,5.0,13.0,15.0,15.0,16.0,17.0,52.2523195,6.795525590808008
138,138,Het Hogeland,0.0,0.0,0.0,0.0,0.0,0.0,0.0,0.0,0.0,0.0,0.0,0.0,0.0,0.0,0.0,0.0,0.0,0.0,0.0,1.0,1.0,4.0,53.41292275,6.505729937635983
139,139,Heumen,0.0,0.0,0.0,0.0,0.0,0.0,0.0,0.0,0.0,0.0,0.0,2.0,2.0,3.0,5.0,6.0,7.0,7.0,7.0,9.0,11.0,12.0,51.7653817,5.8442265
140,140,Heusden,0.0,0.0,0.0,1.0,1.0,1.0,1.0,2.0,2.0,4.0,4.0,4.0,4.0,4.0,5.0,6.0,7.0,11.0,15.0,16.0,19.0,20.0,51.7335641,5.1382012
141,141,Hillegom,0.0,0.0,0.0,0.0,0.0,0.0,0.0,0.0,0.0,0.0,0.0,0.0,0.0,0.0,1.0,1.0,2.0,2.0,2.0,2.0,3.0,3.0,52.2921995,4.5835031
142,142,Hilvarenbeek,0.0,0.0,0.0,0.0,0.0,0.0,0.0,1.0,3.0,5.0,5.0,5.0,4.0,4.0,4.0,4.0,4.0,5.0,6.0,7.0,8.0,10.0,51.4862924,5.1379984
143,143,Hilversum,0.0,0.0,0.0,0.0,0.0,0.0,0.0,0.0,0.0,0.0,0.0,0.0,0.0,3.0,3.0,3.0,5.0,7.0,7.0,7.0,7.0,16.0,52.23158695,5.173493602392345
144,144,Hoeksche Waard,1.0,1.0,1.0,2.0,2.0,2.0,2.0,2.0,1.0,1.0,1.0,2.0,4.0,6.0,8.0,12.0,17.0,17.0,21.0,23.0,31.0,36.0,51.767479249999994,4.435494000691374
145,145,Hof van Twente,0.0,0.0,0.0,0.0,0.0,0.0,0.0,0.0,0.0,0.0,0.0,1.0,1.0,1.0,3.0,3.0,3.0,4.0,5.0,5.0,5.0,6.0,52.2359271,6.5668637425282705
146,146,Hollands Kroon,0.0,0.0,0.0,0.0,0.0,0.0,0.0,0.0,0.0,0.0,0.0,0.0,0.0,0.0,1.0,3.0,3.0,6.0,7.0,8.0,10.0,10.0,52.875946799999994,4.965504712047365
147,147,Hoogeveen,0.0,0.0,0.0,0.0,0.0,0.0,0.0,0.0,1.0,1.0,2.0,2.0,2.0,2.0,3.0,3.0,4.0,5.0,5.0,5.0,6.0,7.0,52.7202393,6.4759313
148,148,Hoorn,0.0,0.0,0.0,0.0,0.0,0.0,0.0,0.0,0.0,0.0,0.0,0.0,1.0,1.0,1.0,2.0,3.0,8.0,9.0,11.0,12.0,14.0,52.622545450000004,5.067726588147824
149,149,Horst aan de Maas,0.0,0.0,0.0,0.0,0.0,0.0,0.0,0.0,0.0,2.0,3.0,3.0,5.0,8.0,8.0,10.0,11.0,13.0,13.0,16.0,17.0,18.0,51.4515953,6.030898893223135
150,150,Houten,1.0,9.0,9.0,13.0,13.0,13.0,13.0,13.0,13.0,13.0,13.0,13.0,13.0,13.0,14.0,17.0,17.0,19.0,23.0,25.0,29.0,37.0,52.03061555,5.1612166394266765
151,151,Huizen,0.0,0.0,0.0,0.0,1.0,1.0,1.0,2.0,1.0,1.0,1.0,1.0,1.0,1.0,2.0,3.0,3.0,3.0,3.0,3.0,3.0,7.0,52.296484449999994,5.240582040690262
152,152,Hulst,0.0,0.0,0.0,0.0,0.0,0.0,0.0,0.0,0.0,0.0,0.0,0.0,0.0,0.0,0.0,0.0,0.0,0.0,0.0,0.0,0.0,1.0,51.2822909,4.0532016
153,153,IJsselstein,0.0,0.0,0.0,0.0,1.0,1.0,1.0,1.0,1.0,1.0,1.0,2.0,4.0,6.0,7.0,8.0,8.0,11.0,13.0,16.0,16.0,18.0,52.026205250000004,5.028685923229064
154,154,Kaag en Braassem,0.0,0.0,0.0,0.0,0.0,0.0,0.0,0.0,0.0,0.0,0.0,0.0,0.0,0.0,0.0,1.0,1.0,1.0,2.0,2.0,4.0,5.0,52.193046249999995,4.621636649034843
155,155,Kampen,0.0,0.0,0.0,0.0,0.0,0.0,0.0,0.0,0.0,0.0,0.0,0.0,0.0,1.0,2.0,2.0,5.0,12.0,14.0,17.0,20.0,30.0,52.576263100000006,5.8681694696797395
156,156,Kapelle,0.0,0.0,0.0,0.0,0.0,0.0,0.0,0.0,0.0,0.0,0.0,0.0,0.0,1.0,2.0,2.0,2.0,2.0,2.0,2.0,2.0,2.0,51.48635,3.95913
157,157,Katwijk,0.0,0.0,0.0,0.0,0.0,0.0,0.0,0.0,1.0,1.0,1.0,1.0,1.0,1.0,2.0,2.0,3.0,5.0,6.0,6.0,6.0,7.0,52.19660355,4.396804776123671
158,158,Kerkrade,0.0,0.0,0.0,0.0,0.0,0.0,0.0,0.0,0.0,0.0,1.0,2.0,2.0,3.0,3.0,3.0,5.0,6.0,8.0,8.0,17.0,21.0,50.8654924,6.0632022
159,159,Koggenland,0.0,0.0,0.0,0.0,0.0,0.0,0.0,0.0,0.0,0.0,1.0,1.0,1.0,1.0,1.0,1.0,1.0,1.0,2.0,4.0,4.0,5.0,52.64758125,4.952321716593174
160,160,Krimpen aan den IJssel,0.0,0.0,0.0,0.0,0.0,0.0,0.0,0.0,1.0,1.0,1.0,1.0,1.0,1.0,1.0,2.0,2.0,2.0,3.0,3.0,3.0,6.0,51.9166979,4.608369872564271
161,161,Krimpenerwaard,0.0,0.0,0.0,0.0,1.0,1.0,1.0,3.0,3.0,3.0,3.0,4.0,4.0,4.0,4.0,5.0,7.0,9.0,11.0,11.0,12.0,16.0,51.955741950000004,4.75784699750764
162,162,Laarbeek,0.0,0.0,0.0,0.0,0.0,0.0,0.0,0.0,0.0,1.0,1.0,1.0,1.0,1.0,2.0,4.0,6.0,8.0,11.0,13.0,17.0,19.0,51.53228435,5.61265248893554
163,163,Landerd,0.0,0.0,0.0,0.0,1.0,2.0,1.0,2.0,2.0,4.0,5.0,5.0,10.0,14.0,16.0,18.0,20.0,20.0,22.0,23.0,25.0,25.0,51.70925615,5.650857375128425
164,164,Landgraaf,0.0,0.0,0.0,0.0,0.0,0.0,0.0,0.0,1.0,2.0,4.0,4.0,4.0,4.0,7.0,7.0,7.0,9.0,10.0,11.0,18.0,21.0,50.902456599999994,6.02931034376856
165,165,Landsmeer,0.0,0.0,0.0,1.0,0.0,0.0,0.0,0.0,2.0,2.0,2.0,3.0,3.0,3.0,3.0,3.0,4.0,4.0,5.0,5.0,6.0,6.0,52.44966555,4.9302029546875765
166,166,Langedijk,0.0,0.0,0.0,0.0,0.0,0.0,0.0,1.0,1.0,3.0,3.0,4.0,4.0,4.0,4.0,4.0,4.0,4.0,4.0,5.0,12.0,12.0,52.6899114,4.778732158075601
167,167,Lansingerland,0.0,0.0,1.0,2.0,2.0,3.0,4.0,4.0,4.0,4.0,4.0,5.0,5.0,7.0,10.0,13.0,14.0,16.0,20.0,20.0,24.0,25.0,52.01101685,4.507645445233463
168,168,Laren,0.0,0.0,0.0,0.0,0.0,0.0,0.0,0.0,0.0,0.0,0.0,0.0,0.0,0.0,0.0,0.0,0.0,0.0,0.0,0.0,3.0,4.0,52.24253135,5.216244030438074
169,169,Leeuwarden,0.0,0.0,0.0,0.0,0.0,0.0,0.0,0.0,1.0,1.0,1.0,1.0,2.0,3.0,4.0,5.0,5.0,8.0,8.0,10.0,10.0,12.0,53.2005936,5.7918548
170,170,Leiden,0.0,0.0,0.0,0.0,0.0,0.0,1.0,1.0,1.0,4.0,4.0,4.0,8.0,8.0,11.0,12.0,14.0,16.0,16.0,16.0,20.0,21.0,52.1518157,4.4811088666204295
171,171,Leiderdorp,0.0,0.0,0.0,0.0,0.0,0.0,0.0,0.0,0.0,0.0,0.0,0.0,1.0,1.0,2.0,2.0,2.0,2.0,2.0,2.0,2.0,3.0,52.15705765,4.543378647059756
172,172,Leidschendam-Voorburg,0.0,0.0,0.0,1.0,1.0,1.0,2.0,2.0,2.0,3.0,3.0,3.0,4.0,5.0,6.0,6.0,7.0,9.0,10.0,10.0,13.0,14.0,52.09260105,4.4321249720751625
173,173,Lelystad,0.0,0.0,0.0,0.0,0.0,0.0,0.0,1.0,1.0,3.0,5.0,7.0,8.0,10.0,12.0,13.0,15.0,15.0,19.0,21.0,24.0,26.0,52.5150949,5.4768915
174,174,Leudal,0.0,0.0,0.0,0.0,0.0,1.0,2.0,3.0,4.0,4.0,6.0,6.0,7.0,8.0,11.0,13.0,16.0,20.0,22.0,23.0,26.0,29.0,51.2339148,5.895853139985457
175,175,Leusden,0.0,0.0,0.0,0.0,0.0,0.0,0.0,0.0,0.0,0.0,0.0,0.0,1.0,1.0,3.0,4.0,4.0,6.0,6.0,7.0,9.0,13.0,52.1187668,5.417118899734083
176,176,Lingewaard,0.0,0.0,1.0,2.0,2.0,2.0,2.0,2.0,2.0,2.0,3.0,3.0,3.0,3.0,4.0,5.0,6.0,6.0,9.0,10.0,11.0,14.0,51.9074337,5.9439721314706215
177,177,Lisse,0.0,0.0,0.0,0.0,0.0,0.0,0.0,0.0,0.0,0.0,0.0,0.0,0.0,0.0,0.0,0.0,0.0,0.0,1.0,1.0,1.0,2.0,52.2540183,4.541928029675811
178,178,Lochem,0.0,0.0,0.0,0.0,0.0,0.0,0.0,0.0,0.0,0.0,0.0,0.0,0.0,0.0,1.0,1.0,2.0,2.0,2.0,2.0,2.0,6.0,52.158471,6.4144888
179,179,Loon op Zand,5.0,5.0,5.0,7.0,7.0,7.0,7.0,7.0,6.0,7.0,7.0,7.0,7.0,8.0,9.0,11.0,13.0,14.0,16.0,17.0,20.0,20.0,51.6271273,5.07407
180,180,Lopik,0.0,0.0,0.0,0.0,0.0,0.0,0.0,0.0,0.0,0.0,0.0,0.0,1.0,2.0,3.0,3.0,3.0,4.0,6.0,9.0,10.0,11.0,51.9752848,4.9491743
181,181,Loppersum,0.0,0.0,0.0,0.0,0.0,0.0,0.0,0.0,0.0,0.0,0.0,0.0,0.0,0.0,0.0,0.0,0.0,0.0,0.0,0.0,0.0,0.0,53.3320144,6.7469502
182,182,Losser,0.0,0.0,0.0,0.0,0.0,0.0,0.0,0.0,0.0,0.0,0.0,0.0,0.0,0.0,0.0,0.0,0.0,1.0,1.0,1.0,1.0,1.0,52.2620369,7.0046452
183,183,Maasdriel,0.0,0.0,0.0,0.0,1.0,1.0,1.0,0.0,0.0,0.0,0.0,0.0,0.0,1.0,1.0,1.0,2.0,2.0,2.0,2.0,3.0,3.0,51.7853378,5.316792505584603
184,184,Maasgouw,0.0,0.0,0.0,0.0,0.0,0.0,0.0,0.0,0.0,0.0,1.0,2.0,2.0,3.0,4.0,5.0,5.0,7.0,8.0,9.0,9.0,10.0,51.1577134,5.894547348825503
185,185,Maassluis,0.0,0.0,0.0,0.0,0.0,0.0,0.0,0.0,0.0,0.0,1.0,1.0,1.0,1.0,2.0,2.0,2.0,3.0,5.0,6.0,7.0,7.0,51.9266671,4.244000657157326
186,186,Maastricht,0.0,0.0,2.0,3.0,4.0,6.0,7.0,8.0,8.0,10.0,16.0,21.0,24.0,33.0,41.0,42.0,56.0,57.0,59.0,60.0,94.0,112.0,50.8512438,5.6909768
187,187,Medemblik,0.0,0.0,0.0,0.0,0.0,0.0,0.0,0.0,0.0,0.0,0.0,0.0,0.0,0.0,0.0,0.0,0.0,1.0,2.0,4.0,4.0,4.0,52.768691,5.106195
188,188,Meerssen,0.0,0.0,0.0,0.0,0.0,0.0,0.0,0.0,0.0,0.0,0.0,0.0,1.0,1.0,2.0,2.0,2.0,2.0,3.0,3.0,8.0,8.0,50.8850867,5.7529708
189,189,Meierijstad,0.0,0.0,0.0,1.0,4.0,10.0,11.0,13.0,18.0,25.0,30.0,34.0,42.0,49.0,60.0,72.0,81.0,95.0,119.0,127.0,139.0,149.0,51.58844725,5.516390104700668
190,190,Meppel,0.0,0.0,0.0,0.0,0.0,0.0,0.0,0.0,0.0,0.0,0.0,0.0,0.0,0.0,0.0,0.0,1.0,1.0,1.0,3.0,3.0,3.0,52.711744350000004,6.197307325163717
191,191,Middelburg,0.0,0.0,0.0,0.0,0.0,0.0,0.0,0.0,0.0,0.0,0.0,0.0,1.0,1.0,2.0,3.0,3.0,4.0,5.0,6.0,6.0,7.0,51.50529485,3.6100710049422853
192,192,Midden-Delfland,0.0,0.0,0.0,0.0,0.0,0.0,0.0,0.0,0.0,0.0,0.0,0.0,0.0,0.0,0.0,1.0,2.0,2.0,2.0,2.0,2.0,2.0,51.97058165,4.322980951300874
193,193,Midden-Drenthe,0.0,0.0,0.0,0.0,0.0,0.0,0.0,0.0,0.0,0.0,0.0,0.0,0.0,0.0,0.0,1.0,1.0,1.0,1.0,1.0,1.0,1.0,52.87061935,6.568055858657804
194,194,Midden-Groningen,0.0,0.0,0.0,0.0,0.0,0.0,0.0,0.0,0.0,0.0,0.0,1.0,1.0,1.0,2.0,2.0,2.0,2.0,2.0,2.0,2.0,2.0,53.184673599999996,6.7795735147296075
195,195,Mill en Sint Hubert,0.0,0.0,0.0,0.0,0.0,0.0,0.0,0.0,0.0,0.0,0.0,1.0,1.0,1.0,1.0,2.0,2.0,2.0,2.0,2.0,5.0,5.0,51.67911945,5.78699324714527
196,196,Moerdijk,0.0,0.0,0.0,0.0,0.0,0.0,0.0,0.0,0.0,1.0,1.0,1.0,1.0,1.0,1.0,2.0,3.0,3.0,3.0,3.0,4.0,5.0,51.703314,4.6258899
197,197,Molenlanden,0.0,0.0,0.0,0.0,0.0,0.0,0.0,0.0,0.0,0.0,0.0,1.0,2.0,3.0,7.0,9.0,11.0,11.0,11.0,11.0,13.0,16.0,51.891504350000005,4.836502649912571
198,198,Montferland,0.0,0.0,0.0,0.0,0.0,0.0,0.0,0.0,0.0,0.0,0.0,0.0,0.0,0.0,1.0,1.0,1.0,1.0,2.0,3.0,3.0,3.0,51.92400575,6.205514601615217
199,199,Montfoort,0.0,0.0,0.0,0.0,0.0,0.0,0.0,0.0,0.0,0.0,0.0,0.0,0.0,0.0,0.0,0.0,0.0,0.0,0.0,2.0,3.0,5.0,52.0387833,4.956087684635074
200,200,Mook en Middelaar,0.0,0.0,0.0,0.0,0.0,0.0,0.0,0.0,0.0,0.0,0.0,0.0,0.0,0.0,0.0,1.0,1.0,1.0,1.0,3.0,5.0,5.0,51.74830635,5.906406373368311
201,201,Neder-Betuwe,0.0,0.0,0.0,0.0,0.0,1.0,1.0,1.0,1.0,3.0,3.0,4.0,4.0,4.0,4.0,4.0,5.0,5.0,9.0,9.0,11.0,11.0,51.92150995,5.616123265710504
202,202,Nederweert,0.0,0.0,0.0,0.0,0.0,0.0,0.0,0.0,0.0,1.0,3.0,3.0,3.0,5.0,7.0,7.0,7.0,7.0,8.0,9.0,11.0,14.0,51.2856418,5.7496037
203,203,Nieuwegein,0.0,0.0,0.0,0.0,0.0,0.0,0.0,0.0,0.0,0.0,0.0,1.0,1.0,3.0,4.0,6.0,8.0,9.0,9.0,11.0,11.0,12.0,52.0298704,5.0929333789192395
204,204,Nieuwkoop,0.0,0.0,0.0,0.0,0.0,0.0,0.0,0.0,1.0,1.0,1.0,1.0,1.0,1.0,1.0,1.0,1.0,2.0,3.0,3.0,4.0,6.0,52.1405891,4.786696497900001
205,205,Nijkerk,0.0,0.0,0.0,0.0,0.0,0.0,0.0,0.0,0.0,0.0,0.0,0.0,1.0,2.0,2.0,2.0,2.0,4.0,4.0,7.0,8.0,8.0,52.2220116,5.4823124
206,206,Nijmegen,0.0,0.0,1.0,2.0,2.0,3.0,3.0,4.0,6.0,8.0,9.0,12.0,17.0,31.0,41.0,48.0,55.0,60.0,68.0,79.0,93.0,108.0,51.8427385,5.8634696
207,207,Nissewaard,0.0,0.0,0.0,0.0,0.0,0.0,0.0,0.0,1.0,1.0,1.0,1.0,1.0,3.0,4.0,7.0,11.0,12.0,15.0,15.0,17.0,19.0,51.82787345,4.305284305924035
208,208,Noardeast-Fryslân,0.0,0.0,0.0,0.0,0.0,0.0,0.0,0.0,0.0,0.0,0.0,0.0,0.0,0.0,0.0,1.0,1.0,1.0,1.0,2.0,3.0,3.0,53.3681579,5.938900135147189
209,209,Noord-Beveland,0.0,0.0,0.0,0.0,0.0,0.0,0.0,0.0,0.0,0.0,0.0,0.0,0.0,0.0,0.0,0.0,0.0,0.0,0.0,0.0,1.0,2.0,51.56520675,3.8009095733783114
210,210,Noordenveld,0.0,0.0,0.0,0.0,0.0,0.0,0.0,0.0,0.0,0.0,0.0,0.0,1.0,1.0,1.0,1.0,1.0,1.0,1.0,1.0,1.0,1.0,53.0953746,6.420844296734667
211,211,Noordoostpolder,0.0,0.0,0.0,0.0,0.0,0.0,0.0,0.0,0.0,0.0,2.0,2.0,2.0,2.0,2.0,2.0,2.0,3.0,3.0,3.0,4.0,5.0,52.7264415,5.703605604549722
212,212,Noordwijk,0.0,0.0,0.0,0.0,0.0,2.0,2.0,2.0,2.0,2.0,2.0,2.0,2.0,2.0,2.0,3.0,2.0,3.0,6.0,6.0,6.0,7.0,52.2698936,4.452685652490141
213,213,"Nuenen, Gerwen en Nederwetten",0.0,0.0,0.0,0.0,0.0,0.0,1.0,1.0,1.0,1.0,1.0,1.0,1.0,1.0,1.0,1.0,1.0,1.0,3.0,4.0,4.0,8.0,51.48603,5.544006988824241
214,214,Nunspeet,0.0,0.0,0.0,0.0,0.0,0.0,0.0,0.0,0.0,1.0,1.0,1.0,2.0,2.0,3.0,3.0,4.0,9.0,13.0,17.0,22.0,29.0,52.378571,5.780886
215,215,Oegstgeest,0.0,0.0,0.0,1.0,1.0,1.0,1.0,2.0,2.0,2.0,4.0,4.0,4.0,4.0,4.0,5.0,6.0,7.0,7.0,7.0,8.0,9.0,52.1833669,4.472129402976295
216,216,Oirschot,0.0,0.0,0.0,0.0,0.0,0.0,0.0,0.0,0.0,0.0,0.0,0.0,1.0,1.0,1.0,1.0,1.0,1.0,3.0,3.0,4.0,6.0,51.5032385,5.3155486
217,217,Oisterwijk,0.0,0.0,1.0,3.0,3.0,3.0,3.0,4.0,5.0,6.0,6.0,6.0,9.0,10.0,10.0,10.0,12.0,15.0,16.0,16.0,16.0,18.0,51.5778742,5.1938101
218,218,Oldambt,0.0,0.0,0.0,0.0,0.0,0.0,0.0,0.0,0.0,0.0,0.0,0.0,0.0,0.0,0.0,0.0,0.0,0.0,0.0,0.0,0.0,0.0,53.2223408,7.068982392062174
219,219,Oldebroek,0.0,0.0,0.0,0.0,0.0,0.0,0.0,0.0,0.0,1.0,1.0,1.0,2.0,2.0,5.0,5.0,5.0,6.0,7.0,7.0,8.0,12.0,52.4456068,5.8990319
220,220,Oldenzaal,0.0,0.0,0.0,0.0,0.0,0.0,0.0,0.0,0.0,0.0,1.0,1.0,1.0,1.0,2.0,3.0,5.0,6.0,6.0,6.0,8.0,13.0,52.30853685,6.914603743122237
221,221,Olst-Wijhe,0.0,0.0,0.0,0.0,0.0,0.0,0.0,0.0,0.0,0.0,0.0,0.0,0.0,0.0,0.0,0.0,0.0,2.0,2.0,2.0,4.0,6.0,52.3756076,6.146510651573131
222,222,Ommen,0.0,0.0,0.0,0.0,0.0,0.0,0.0,0.0,0.0,0.0,1.0,1.0,1.0,1.0,2.0,2.0,3.0,4.0,4.0,6.0,6.0,7.0,52.5208023,6.4251941
223,223,Oost Gelre,0.0,0.0,0.0,0.0,0.0,0.0,0.0,0.0,0.0,0.0,0.0,0.0,0.0,0.0,0.0,0.0,1.0,2.0,2.0,2.0,6.0,6.0,52.0153031,6.561010327461535
224,224,Oosterhout,0.0,0.0,0.0,0.0,0.0,0.0,0.0,0.0,1.0,3.0,4.0,5.0,6.0,8.0,9.0,9.0,12.0,13.0,16.0,22.0,23.0,26.0,51.6447215,4.8608337
225,225,Ooststellingwerf,0.0,0.0,0.0,0.0,0.0,0.0,0.0,0.0,0.0,0.0,0.0,0.0,0.0,0.0,0.0,0.0,0.0,0.0,0.0,0.0,0.0,1.0,52.99085895,6.304963752820772
226,226,Oostzaan,0.0,0.0,0.0,0.0,0.0,0.0,0.0,0.0,0.0,0.0,0.0,0.0,0.0,1.0,2.0,2.0,3.0,3.0,4.0,5.0,5.0,6.0,52.45218065,4.868548732505015
227,227,Opmeer,0.0,0.0,0.0,0.0,0.0,0.0,0.0,0.0,0.0,0.0,0.0,0.0,0.0,0.0,0.0,0.0,0.0,0.0,0.0,0.0,0.0,0.0,52.704381749999996,4.928568037131412
228,228,Opsterland,0.0,0.0,0.0,0.0,0.0,0.0,2.0,2.0,2.0,2.0,2.0,2.0,2.0,2.0,2.0,2.0,2.0,2.0,2.0,3.0,3.0,4.0,53.04680105,6.095135723829035
229,229,Oss,1.0,1.0,1.0,1.0,1.0,1.0,1.0,2.0,3.0,3.0,4.0,5.0,11.0,14.0,20.0,26.0,35.0,44.0,59.0,65.0,73.0,81.0,51.7689067,5.5223672
230,230,Oude IJsselstreek,0.0,0.0,0.0,0.0,0.0,0.0,0.0,0.0,0.0,0.0,0.0,0.0,1.0,2.0,2.0,2.0,2.0,4.0,4.0,4.0,4.0,4.0,51.90269995,6.391753286370878
231,231,Ouder-Amstel,0.0,0.0,0.0,0.0,0.0,0.0,0.0,0.0,0.0,0.0,0.0,0.0,0.0,2.0,3.0,3.0,3.0,4.0,4.0,5.0,7.0,7.0,52.2946678,4.91646890749465
232,232,Oudewater,0.0,0.0,0.0,0.0,0.0,0.0,0.0,0.0,0.0,0.0,0.0,1.0,1.0,1.0,1.0,2.0,2.0,3.0,4.0,4.0,7.0,10.0,52.02015625,4.896559775204166
233,233,Overbetuwe,0.0,0.0,0.0,0.0,0.0,0.0,0.0,0.0,0.0,0.0,4.0,6.0,8.0,9.0,9.0,11.0,15.0,20.0,22.0,30.0,33.0,38.0,51.921961249999995,5.786081549088322
234,234,Papendrecht,0.0,0.0,0.0,0.0,0.0,0.0,0.0,0.0,0.0,0.0,0.0,0.0,0.0,0.0,0.0,1.0,2.0,2.0,4.0,5.0,5.0,6.0,51.834666999999996,4.704688255674374
235,235,Peel en Maas,0.0,0.0,0.0,0.0,0.0,0.0,1.0,3.0,4.0,8.0,10.0,14.0,19.0,31.0,36.0,41.0,49.0,63.0,64.0,69.0,79.0,88.0,51.33064175,5.979363705773345
236,236,Pekela,0.0,0.0,0.0,0.0,0.0,0.0,0.0,0.0,1.0,1.0,1.0,1.0,1.0,1.0,1.0,1.0,1.0,2.0,2.0,2.0,2.0,2.0,53.067078300000006,6.965987960024869
237,237,Pijnacker-Nootdorp,0.0,2.0,2.0,2.0,2.0,2.0,4.0,5.0,5.0,6.0,6.0,7.0,8.0,10.0,11.0,11.0,11.0,11.0,11.0,12.0,14.0,16.0,52.0111357,4.426848138072311
238,238,Purmerend,0.0,0.0,0.0,0.0,0.0,0.0,0.0,1.0,1.0,2.0,2.0,2.0,2.0,2.0,4.0,7.0,11.0,14.0,20.0,22.0,23.0,32.0,52.4997208,4.964420036889974
239,239,Putten,0.0,0.0,0.0,0.0,0.0,0.0,0.0,0.0,0.0,0.0,0.0,0.0,2.0,2.0,2.0,2.0,3.0,3.0,3.0,3.0,3.0,5.0,52.2608751,5.6100469
240,240,Raalte,0.0,0.0,0.0,0.0,0.0,0.0,0.0,0.0,1.0,1.0,1.0,1.0,2.0,3.0,3.0,3.0,3.0,3.0,5.0,5.0,6.0,10.0,52.3857034,6.2718277
241,241,Reimerswaal,0.0,0.0,0.0,0.0,0.0,0.0,0.0,0.0,1.0,1.0,1.0,1.0,2.0,2.0,3.0,4.0,5.0,5.0,5.0,5.0,6.0,7.0,51.44300185,4.101441031156753
242,242,Renkum,0.0,0.0,1.0,1.0,5.0,5.0,5.0,7.0,7.0,7.0,7.0,8.0,8.0,8.0,8.0,8.0,9.0,9.0,10.0,10.0,11.0,12.0,51.9751065,5.7335691
243,243,Renswoude,0.0,0.0,0.0,0.0,0.0,0.0,0.0,0.0,0.0,0.0,0.0,0.0,0.0,0.0,0.0,0.0,0.0,0.0,0.0,0.0,0.0,0.0,52.072421899999995,5.5308677368115005
244,244,Reusel-De Mierden,0.0,0.0,0.0,0.0,0.0,0.0,0.0,0.0,0.0,0.0,0.0,0.0,0.0,0.0,0.0,0.0,0.0,0.0,1.0,1.0,1.0,1.0,51.37099705,5.1468666691668705
245,245,Rheden,0.0,0.0,0.0,0.0,0.0,0.0,1.0,1.0,1.0,1.0,1.0,1.0,1.0,2.0,3.0,4.0,7.0,7.0,10.0,12.0,15.0,18.0,52.0043836,6.0302806
246,246,Rhenen,0.0,0.0,0.0,0.0,0.0,0.0,0.0,0.0,0.0,0.0,0.0,0.0,0.0,0.0,0.0,0.0,0.0,0.0,0.0,1.0,1.0,1.0,51.980847600000004,5.5745623668309925
247,247,Ridderkerk,0.0,0.0,0.0,1.0,1.0,1.0,1.0,1.0,1.0,1.0,1.0,1.0,1.0,1.0,1.0,1.0,2.0,4.0,5.0,5.0,7.0,9.0,51.8709913,4.592647897485351
248,248,Rijssen-Holten,0.0,0.0,0.0,0.0,0.0,0.0,0.0,0.0,0.0,0.0,0.0,0.0,0.0,0.0,0.0,0.0,2.0,3.0,4.0,4.0,4.0,9.0,52.284324850000004,6.440777380657181
249,249,Rijswijk,0.0,0.0,0.0,0.0,0.0,0.0,0.0,0.0,0.0,0.0,0.0,0.0,1.0,2.0,3.0,3.0,4.0,4.0,5.0,7.0,8.0,10.0,52.03739335,4.322502837527406
250,250,Roerdalen,0.0,0.0,0.0,0.0,0.0,0.0,0.0,0.0,0.0,0.0,0.0,0.0,0.0,0.0,1.0,1.0,4.0,4.0,6.0,7.0,10.0,10.0,51.14172275,5.992474016651388
251,251,Roermond,0.0,0.0,0.0,0.0,1.0,1.0,1.0,1.0,1.0,1.0,2.0,2.0,2.0,4.0,6.0,13.0,15.0,18.0,21.0,23.0,26.0,28.0,51.190174,5.9914098
252,252,Roosendaal,0.0,0.0,0.0,0.0,0.0,0.0,0.0,1.0,1.0,2.0,2.0,5.0,6.0,6.0,6.0,7.0,8.0,8.0,11.0,16.0,18.0,20.0,51.5304587,4.464493820524657
253,253,Rotterdam,3.0,5.0,9.0,11.0,14.0,14.0,15.0,15.0,15.0,20.0,24.0,25.0,30.0,41.0,58.0,81.0,104.0,120.0,139.0,149.0,163.0,186.0,51.9228958,4.4631727
254,254,Rozendaal,0.0,0.0,0.0,0.0,0.0,0.0,0.0,0.0,0.0,0.0,0.0,1.0,1.0,1.0,2.0,2.0,2.0,2.0,2.0,2.0,2.0,2.0,52.0394752,5.963024982504363
255,255,Rucphen,0.0,0.0,0.0,0.0,0.0,0.0,0.0,0.0,0.0,0.0,0.0,1.0,1.0,1.0,1.0,2.0,3.0,6.0,6.0,6.0,6.0,6.0,51.5328422,4.5597188
256,256,Schagen,0.0,0.0,0.0,0.0,0.0,0.0,1.0,1.0,1.0,2.0,3.0,4.0,4.0,4.0,5.0,6.0,6.0,7.0,7.0,7.0,10.0,11.0,52.7882013,4.804434
257,257,Scherpenzeel,0.0,0.0,0.0,0.0,0.0,0.0,0.0,0.0,0.0,0.0,0.0,0.0,0.0,0.0,0.0,0.0,0.0,0.0,1.0,2.0,2.0,2.0,52.090368850000004,5.507202445760246
258,258,Schiedam,0.0,0.0,0.0,0.0,0.0,0.0,0.0,0.0,0.0,0.0,0.0,1.0,1.0,1.0,1.0,2.0,4.0,6.0,8.0,8.0,10.0,14.0,51.9300454,4.386451052615731
259,259,Schiermonnikoog,0.0,0.0,0.0,0.0,0.0,0.0,0.0,0.0,0.0,0.0,0.0,0.0,0.0,0.0,0.0,0.0,0.0,0.0,0.0,0.0,0.0,0.0,53.48332935,6.2027736660373805
260,260,Schouwen-Duiveland,0.0,0.0,0.0,1.0,2.0,1.0,2.0,1.0,2.0,2.0,2.0,2.0,2.0,2.0,2.0,2.0,2.0,3.0,3.0,3.0,3.0,6.0,51.687435300000004,3.876634088033648
261,261,Simpelveld,0.0,0.0,2.0,2.0,2.0,2.0,2.0,2.0,2.0,2.0,2.0,3.0,3.0,4.0,5.0,5.0,5.0,5.0,5.0,5.0,7.0,8.0,50.8355496,5.9827262
262,262,Sint Anthonis,0.0,0.0,0.0,0.0,0.0,0.0,0.0,0.0,0.0,0.0,2.0,2.0,3.0,4.0,5.0,8.0,10.0,12.0,13.0,13.0,13.0,13.0,51.626921,5.8816763
263,263,Sint-Michielsgestel,0.0,1.0,2.0,3.0,5.0,5.0,5.0,5.0,5.0,5.0,6.0,6.0,8.0,8.0,10.0,10.0,12.0,12.0,14.0,14.0,17.0,18.0,51.6391001,5.3515392
264,264,Sittard-Geleen,0.0,2.0,4.0,4.0,7.0,8.0,13.0,20.0,20.0,23.0,35.0,37.0,38.0,42.0,51.0,51.0,58.0,58.0,59.0,61.0,84.0,86.0,51.0094043,5.8376057867167965
265,265,Sliedrecht,0.0,0.0,0.0,0.0,0.0,0.0,0.0,0.0,0.0,0.0,0.0,0.0,0.0,1.0,1.0,1.0,2.0,3.0,3.0,3.0,4.0,5.0,51.8308564,4.769843031183671
266,266,Sluis,0.0,0.0,0.0,0.0,0.0,0.0,0.0,0.0,0.0,0.0,0.0,1.0,2.0,2.0,2.0,2.0,3.0,3.0,4.0,4.0,5.0,5.0,51.3083996,3.3874159
267,267,Smallingerland,0.0,0.0,0.0,0.0,0.0,0.0,0.0,1.0,1.0,1.0,2.0,3.0,3.0,3.0,3.0,3.0,3.0,3.0,3.0,3.0,3.0,4.0,53.11525265,6.050738915587699
268,268,Soest,0.0,4.0,6.0,7.0,7.0,7.0,8.0,8.0,8.0,8.0,8.0,8.0,10.0,11.0,12.0,13.0,14.0,15.0,16.0,16.0,20.0,21.0,52.17338,5.31292
269,269,Someren,0.0,0.0,0.0,0.0,0.0,0.0,0.0,0.0,0.0,0.0,1.0,1.0,1.0,2.0,3.0,3.0,5.0,5.0,6.0,7.0,7.0,10.0,51.3858887,5.7133677
270,270,Son en Breugel,0.0,0.0,0.0,0.0,0.0,0.0,0.0,1.0,1.0,2.0,2.0,2.0,4.0,4.0,4.0,5.0,7.0,8.0,10.0,10.0,13.0,15.0,51.5178128,5.491434707574257
271,271,Stadskanaal,0.0,0.0,0.0,0.0,0.0,0.0,0.0,0.0,0.0,0.0,0.0,0.0,0.0,0.0,0.0,0.0,0.0,0.0,0.0,0.0,0.0,0.0,52.9925618,6.9624466
272,272,Staphorst,0.0,0.0,0.0,0.0,0.0,0.0,0.0,0.0,0.0,0.0,1.0,1.0,1.0,1.0,1.0,2.0,3.0,3.0,3.0,4.0,4.0,4.0,52.647276,6.2074792
273,273,Stede Broec,0.0,0.0,0.0,0.0,0.0,0.0,0.0,0.0,0.0,0.0,0.0,0.0,1.0,1.0,1.0,3.0,3.0,5.0,5.0,8.0,9.0,13.0,52.697291899999996,5.225990311919762
274,274,Steenbergen,0.0,0.0,0.0,0.0,0.0,0.0,0.0,0.0,0.0,0.0,0.0,1.0,2.0,2.0,2.0,4.0,4.0,5.0,8.0,8.0,9.0,11.0,51.58592,4.3145758
275,275,Steenwijkerland,0.0,0.0,0.0,0.0,0.0,0.0,0.0,0.0,0.0,0.0,0.0,0.0,0.0,1.0,1.0,1.0,1.0,3.0,3.0,4.0,5.0,6.0,52.7478796,6.0232031497011835
276,276,Stein,0.0,0.0,0.0,0.0,0.0,0.0,0.0,1.0,1.0,1.0,3.0,3.0,3.0,3.0,4.0,4.0,5.0,5.0,6.0,9.0,24.0,24.0,50.9694381,5.7669713
277,277,Stichtse Vecht,0.0,2.0,3.0,4.0,5.0,5.0,5.0,5.0,5.0,6.0,6.0,7.0,7.0,8.0,9.0,10.0,10.0,10.0,12.0,13.0,16.0,22.0,52.20301145,4.994837650454457
278,278,Súdwest Fryslân,0.0,0.0,0.0,0.0,0.0,0.0,0.0,0.0,1.0,0.0,0.0,0.0,0.0,0.0,0.0,0.0,0.0,0.0,0.0,0.0,0.0,0.0,52.974832649999996,5.436073892467922
279,279,Terneuzen,0.0,0.0,0.0,0.0,0.0,0.0,0.0,0.0,0.0,0.0,1.0,1.0,1.0,2.0,3.0,4.0,5.0,5.0,5.0,6.0,6.0,10.0,51.3254737,3.8403111
280,280,Terschelling,0.0,0.0,0.0,0.0,0.0,0.0,0.0,0.0,0.0,0.0,0.0,0.0,0.0,0.0,0.0,0.0,0.0,0.0,0.0,0.0,0.0,0.0,53.35829,5.21604
281,281,Texel,0.0,0.0,0.0,0.0,0.0,0.0,0.0,0.0,0.0,0.0,0.0,0.0,0.0,0.0,0.0,2.0,3.0,3.0,3.0,3.0,3.0,3.0,53.053921,4.79605
282,282,Teylingen,0.0,0.0,0.0,0.0,0.0,0.0,0.0,0.0,0.0,0.0,0.0,0.0,1.0,2.0,2.0,2.0,3.0,5.0,7.0,7.0,7.0,8.0,52.21739375,4.511393222538171
283,283,Tholen,0.0,0.0,0.0,0.0,0.0,0.0,0.0,0.0,0.0,0.0,0.0,1.0,1.0,1.0,2.0,2.0,2.0,7.0,7.0,8.0,11.0,13.0,51.5354462,4.2232813
284,284,Tiel,0.0,0.0,0.0,0.0,0.0,1.0,1.0,1.0,2.0,2.0,2.0,3.0,4.0,4.0,4.0,4.0,4.0,4.0,5.0,6.0,8.0,14.0,51.892425349999996,5.430438174137935
285,285,Tilburg,3.0,3.0,4.0,10.0,12.0,27.0,29.0,42.0,50.0,67.0,68.0,68.0,84.0,88.0,95.0,119.0,133.0,154.0,178.0,193.0,211.0,224.0,51.55847,5.083076
286,286,Tubbergen,0.0,0.0,0.0,0.0,0.0,1.0,1.0,1.0,1.0,1.0,1.0,1.0,1.0,1.0,1.0,3.0,3.0,3.0,3.0,4.0,4.0,4.0,52.4081084,6.7818694
287,287,Twenterand,0.0,0.0,0.0,0.0,0.0,0.0,0.0,0.0,0.0,0.0,0.0,0.0,0.0,0.0,0.0,0.0,0.0,1.0,1.0,2.0,3.0,3.0,52.439304,6.635427575044659
288,288,Tynaarlo,0.0,0.0,0.0,0.0,0.0,0.0,0.0,0.0,0.0,0.0,0.0,0.0,0.0,1.0,3.0,4.0,5.0,7.0,8.0,8.0,10.0,13.0,53.0770194,6.6175495
289,289,Tytsjerksteradiel,0.0,0.0,0.0,0.0,0.0,0.0,0.0,0.0,0.0,0.0,0.0,0.0,1.0,1.0,1.0,1.0,1.0,1.0,1.0,1.0,1.0,2.0,53.20512135,5.973447146507526
290,290,Uden,0.0,0.0,2.0,6.0,7.0,12.0,13.0,18.0,21.0,25.0,28.0,33.0,43.0,49.0,53.0,60.0,71.0,76.0,82.0,84.0,92.0,94.0,51.6590888,5.6148605
291,291,Uitgeest,0.0,0.0,0.0,0.0,0.0,0.0,0.0,0.0,0.0,0.0,0.0,0.0,0.0,0.0,0.0,0.0,2.0,2.0,4.0,4.0,4.0,4.0,52.523293949999996,4.737466990272131
292,292,Uithoorn,0.0,0.0,0.0,0.0,0.0,0.0,0.0,0.0,0.0,0.0,0.0,0.0,0.0,0.0,1.0,2.0,2.0,2.0,2.0,2.0,4.0,5.0,52.24400285,4.828160506359512
293,293,Urk,0.0,0.0,0.0,0.0,0.0,0.0,0.0,0.0,0.0,0.0,0.0,0.0,0.0,0.0,1.0,4.0,5.0,6.0,7.0,7.0,7.0,7.0,52.6927959,5.457617050455788
294,294,Utrecht,2.0,6.0,8.0,11.0,13.0,13.0,14.0,18.0,25.0,26.0,30.0,38.0,48.0,60.0,69.0,83.0,101.0,121.0,131.0,145.0,160.0,191.0,52.0949753,5.109708
295,295,Utrechtse Heuvelrug,0.0,0.0,1.0,1.0,2.0,2.0,2.0,2.0,2.0,2.0,2.0,2.0,3.0,5.0,6.0,8.0,8.0,8.0,11.0,14.0,14.0,15.0,52.028653649999995,5.394884269227865
296,296,Vaals,0.0,0.0,0.0,0.0,0.0,0.0,0.0,0.0,0.0,0.0,0.0,0.0,0.0,0.0,0.0,0.0,0.0,0.0,0.0,0.0,3.0,4.0,50.7710157,6.019049
297,297,Valkenburg aan de Geul,0.0,0.0,0.0,0.0,0.0,0.0,0.0,0.0,0.0,0.0,0.0,0.0,1.0,2.0,2.0,2.0,4.0,4.0,4.0,4.0,8.0,9.0,50.86094405,5.813709999149556
298,298,Valkenswaard,0.0,0.0,0.0,0.0,0.0,0.0,0.0,0.0,0.0,0.0,0.0,0.0,0.0,0.0,1.0,1.0,2.0,4.0,4.0,5.0,8.0,9.0,51.350688,5.4594497
299,299,Veendam,0.0,0.0,0.0,0.0,0.0,0.0,0.0,0.0,0.0,0.0,0.0,0.0,0.0,0.0,0.0,0.0,0.0,0.0,0.0,0.0,0.0,1.0,53.1028443,6.8694863
300,300,Veenendaal,0.0,0.0,0.0,0.0,0.0,0.0,0.0,0.0,1.0,1.0,1.0,1.0,1.0,1.0,1.0,2.0,2.0,2.0,3.0,6.0,6.0,7.0,52.02320415,5.551800233162295
301,301,Veere,0.0,0.0,0.0,0.0,0.0,0.0,0.0,2.0,1.0,1.0,1.0,1.0,1.0,1.0,1.0,1.0,2.0,5.0,5.0,6.0,6.0,6.0,51.5475163,3.6660882
302,302,Veldhoven,0.0,0.0,0.0,0.0,0.0,1.0,1.0,1.0,1.0,1.0,1.0,1.0,1.0,1.0,1.0,2.0,5.0,9.0,11.0,11.0,14.0,18.0,51.40770635,5.392731058176404
303,303,Velsen,0.0,0.0,0.0,0.0,0.0,0.0,0.0,0.0,1.0,1.0,1.0,1.0,4.0,4.0,4.0,4.0,5.0,8.0,10.0,11.0,15.0,15.0,52.451910299999994,4.603891145874141
304,304,Venlo,0.0,0.0,0.0,0.0,0.0,1.0,1.0,1.0,2.0,2.0,3.0,4.0,6.0,8.0,12.0,21.0,24.0,33.0,33.0,35.0,40.0,47.0,51.3702109,6.1688954
305,305,Venray,0.0,0.0,0.0,0.0,0.0,0.0,0.0,0.0,0.0,0.0,0.0,0.0,0.0,0.0,1.0,3.0,6.0,8.0,9.0,10.0,13.0,17.0,51.5367139,5.972118187978204
306,306,Vijfheerenlanden,0.0,0.0,0.0,1.0,1.0,1.0,1.0,1.0,1.0,2.0,2.0,2.0,3.0,4.0,4.0,7.0,7.0,9.0,11.0,12.0,18.0,21.0,51.9301978,5.049517114891252
307,307,Vlaardingen,0.0,0.0,0.0,0.0,0.0,0.0,0.0,0.0,1.0,1.0,1.0,1.0,1.0,2.0,2.0,4.0,7.0,12.0,15.0,15.0,18.0,22.0,51.9227863,4.329563378870851
308,308,Vlieland,0.0,0.0,0.0,0.0,0.0,0.0,0.0,0.0,0.0,0.0,0.0,0.0,0.0,0.0,0.0,0.0,0.0,0.0,0.0,0.0,0.0,0.0,53.29686,5.07479
309,309,Vlissingen,0.0,0.0,0.0,0.0,0.0,0.0,0.0,0.0,2.0,2.0,2.0,2.0,3.0,4.0,4.0,5.0,6.0,6.0,6.0,8.0,8.0,8.0,51.455681,3.57649
310,310,Voerendaal,0.0,0.0,0.0,0.0,0.0,0.0,0.0,0.0,0.0,0.0,0.0,0.0,0.0,1.0,3.0,3.0,4.0,4.0,4.0,4.0,5.0,6.0,50.8804521,5.926962
311,311,Voorschoten,0.0,0.0,0.0,0.0,0.0,0.0,0.0,0.0,0.0,0.0,0.0,0.0,0.0,0.0,1.0,1.0,2.0,2.0,3.0,3.0,3.0,5.0,52.12572195,4.441016864583206
312,312,Voorst,0.0,0.0,0.0,0.0,0.0,1.0,1.0,1.0,1.0,1.0,1.0,1.0,1.0,1.0,1.0,1.0,1.0,2.0,2.0,2.0,3.0,6.0,52.1730487,6.1415761
313,313,Vught,0.0,0.0,0.0,0.0,0.0,1.0,1.0,1.0,2.0,2.0,2.0,2.0,3.0,6.0,7.0,8.0,8.0,11.0,15.0,17.0,19.0,22.0,51.656821,5.2893308
314,314,Waadhoeke,0.0,0.0,0.0,0.0,0.0,0.0,0.0,0.0,0.0,0.0,0.0,0.0,0.0,0.0,0.0,0.0,0.0,0.0,0.0,0.0,0.0,0.0,53.2460054,5.610797779708593
315,315,Waalre,0.0,0.0,1.0,1.0,1.0,1.0,1.0,1.0,1.0,1.0,1.0,1.0,1.0,1.0,2.0,2.0,2.0,2.0,2.0,2.0,3.0,2.0,51.3876404,5.4476871
316,316,Waalwijk,0.0,0.0,1.0,3.0,5.0,5.0,5.0,6.0,6.0,9.0,8.0,8.0,10.0,11.0,12.0,13.0,15.0,16.0,22.0,24.0,29.0,34.0,51.6852544,5.0705122
317,317,Waddinxveen,0.0,0.0,0.0,0.0,0.0,0.0,1.0,1.0,1.0,1.0,1.0,1.0,1.0,1.0,1.0,3.0,3.0,4.0,4.0,4.0,4.0,5.0,52.0443437,4.641596120380745
318,318,Wageningen,0.0,0.0,0.0,0.0,0.0,0.0,0.0,0.0,0.0,0.0,0.0,0.0,0.0,1.0,1.0,1.0,2.0,3.0,3.0,3.0,3.0,3.0,51.9685817,5.668298061827958
319,319,Wassenaar,0.0,0.0,0.0,0.0,0.0,0.0,0.0,0.0,0.0,1.0,2.0,2.0,3.0,3.0,3.0,4.0,4.0,5.0,5.0,5.0,5.0,5.0,52.14361135,4.370966818678455
320,320,Waterland,0.0,0.0,0.0,0.0,1.0,1.0,1.0,1.0,1.0,1.0,1.0,2.0,3.0,3.0,4.0,7.0,7.0,8.0,8.0,9.0,10.0,11.0,52.44350745,5.058109822038444
321,321,Weert,0.0,0.0,0.0,0.0,0.0,0.0,0.0,0.0,0.0,0.0,0.0,0.0,0.0,0.0,0.0,0.0,4.0,7.0,7.0,12.0,17.0,24.0,51.2531334,5.7085827
322,322,Weesp,0.0,0.0,0.0,0.0,0.0,0.0,0.0,0.0,0.0,0.0,0.0,0.0,0.0,0.0,0.0,0.0,1.0,1.0,1.0,1.0,2.0,6.0,52.30444305,5.0585343520066335
323,323,West Betuwe,0.0,0.0,1.0,2.0,2.0,2.0,2.0,2.0,2.0,3.0,3.0,3.0,3.0,6.0,6.0,8.0,11.0,12.0,12.0,15.0,17.0,19.0,51.8697052,5.194137167944251
324,324,West Maas en Waal,0.0,0.0,1.0,1.0,1.0,1.0,1.0,1.0,2.0,2.0,2.0,3.0,3.0,3.0,3.0,3.0,4.0,4.0,6.0,7.0,8.0,11.0,51.852191399999995,5.49837974702748
325,325,Westerkwartier,0.0,0.0,0.0,0.0,0.0,0.0,0.0,0.0,0.0,0.0,0.0,1.0,1.0,1.0,1.0,3.0,2.0,3.0,6.0,8.0,8.0,9.0,53.21425645,6.3459813379440115
326,326,Westerveld,0.0,0.0,0.0,0.0,0.0,0.0,0.0,0.0,0.0,0.0,0.0,0.0,0.0,0.0,0.0,0.0,0.0,1.0,1.0,2.0,2.0,2.0,52.82845325,6.311162261576614
327,327,Westervoort,0.0,0.0,0.0,0.0,0.0,0.0,0.0,0.0,0.0,0.0,0.0,0.0,0.0,0.0,0.0,0.0,1.0,1.0,2.0,2.0,2.0,2.0,51.9597557,5.9682662318854725
328,328,Westerwolde,0.0,0.0,0.0,0.0,0.0,0.0,0.0,0.0,0.0,0.0,0.0,0.0,0.0,0.0,0.0,0.0,0.0,0.0,0.0,0.0,0.0,3.0,52.999464450000005,7.1404588700937754
329,329,Westland,0.0,0.0,0.0,0.0,0.0,0.0,0.0,0.0,0.0,0.0,0.0,1.0,1.0,3.0,6.0,7.0,9.0,11.0,15.0,21.0,25.0,28.0,51.99249,4.20763
330,330,Weststellingwerf,0.0,0.0,0.0,0.0,0.0,0.0,0.0,0.0,0.0,0.0,0.0,0.0,0.0,0.0,0.0,0.0,0.0,1.0,1.0,1.0,1.0,1.0,52.87191835,6.008674359652279
331,331,Westvoorne,0.0,0.0,1.0,1.0,1.0,1.0,1.0,1.0,1.0,1.0,2.0,3.0,3.0,3.0,3.0,3.0,3.0,3.0,5.0,7.0,8.0,8.0,51.8882976,4.059905590312815
332,332,Wierden,0.0,0.0,0.0,0.0,0.0,0.0,0.0,0.0,0.0,0.0,0.0,0.0,0.0,0.0,0.0,0.0,0.0,0.0,0.0,0.0,0.0,1.0,52.35195215,6.567448420567358
333,333,Wijchen,0.0,0.0,0.0,0.0,1.0,1.0,1.0,1.0,2.0,3.0,3.0,4.0,5.0,6.0,8.0,8.0,14.0,17.0,20.0,21.0,23.0,24.0,51.8099983,5.7362233
334,334,Wijdemeren,0.0,0.0,0.0,0.0,0.0,0.0,0.0,0.0,0.0,0.0,0.0,0.0,0.0,0.0,1.0,1.0,1.0,1.0,1.0,1.0,1.0,3.0,52.2256115,5.090367791157206
335,335,Wijk bij Duurstede,0.0,0.0,1.0,1.0,1.0,1.0,1.0,1.0,2.0,2.0,2.0,3.0,3.0,4.0,4.0,4.0,5.0,6.0,6.0,6.0,6.0,6.0,51.9775074,5.326929727283412
336,336,Winterswijk,0.0,0.0,0.0,0.0,0.0,0.0,0.0,0.0,0.0,0.0,0.0,0.0,0.0,0.0,0.0,0.0,0.0,1.0,2.0,2.0,2.0,2.0,51.9746432,6.7224185
337,337,Woensdrecht,0.0,0.0,0.0,0.0,0.0,0.0,0.0,0.0,0.0,0.0,0.0,0.0,0.0,0.0,0.0,0.0,0.0,0.0,2.0,3.0,4.0,5.0,51.4293059,4.304716
338,338,Woerden,0.0,0.0,2.0,2.0,2.0,2.0,2.0,2.0,2.0,2.0,2.0,2.0,2.0,3.0,4.0,4.0,5.0,6.0,7.0,14.0,19.0,22.0,52.08701595,4.876687198673499
339,339,Wormerland,0.0,0.0,0.0,0.0,0.0,0.0,0.0,0.0,0.0,0.0,0.0,0.0,0.0,0.0,0.0,1.0,1.0,1.0,1.0,2.0,2.0,3.0,52.505552249999994,4.85934288905351
340,340,Woudenberg,0.0,0.0,0.0,0.0,0.0,0.0,0.0,1.0,1.0,1.0,1.0,1.0,1.0,1.0,2.0,2.0,3.0,3.0,3.0,4.0,4.0,6.0,52.08025955,5.4122265761644925
341,341,Zaanstad,0.0,0.0,0.0,2.0,2.0,2.0,2.0,2.0,2.0,2.0,2.0,2.0,2.0,2.0,2.0,4.0,3.0,9.0,11.0,19.0,20.0,29.0,52.4689235,4.773783522451712
342,342,Zaltbommel,1.0,1.0,1.0,1.0,1.0,1.0,1.0,1.0,1.0,1.0,1.0,1.0,1.0,3.0,3.0,3.0,4.0,5.0,6.0,7.0,7.0,7.0,51.8066578,5.2411204
343,343,Zandvoort,0.0,0.0,0.0,0.0,0.0,0.0,0.0,0.0,0.0,0.0,1.0,1.0,1.0,1.0,1.0,1.0,1.0,2.0,2.0,3.0,6.0,6.0,52.3595916,4.53252402994204
344,344,Zeewolde,0.0,1.0,1.0,1.0,1.0,1.0,1.0,1.0,1.0,1.0,2.0,2.0,2.0,2.0,3.0,3.0,4.0,4.0,4.0,4.0,4.0,5.0,52.331111,5.5430312
345,345,Zeist,0.0,0.0,0.0,1.0,1.0,1.0,2.0,3.0,4.0,4.0,4.0,6.0,8.0,12.0,12.0,12.0,13.0,17.0,17.0,19.0,20.0,25.0,52.086531750000006,5.249007957671885
346,346,Zevenaar,0.0,0.0,0.0,0.0,0.0,0.0,0.0,0.0,0.0,0.0,0.0,0.0,0.0,0.0,2.0,3.0,5.0,6.0,8.0,9.0,10.0,10.0,51.9357252,6.0789395
347,347,Zoetermeer,0.0,0.0,0.0,0.0,0.0,0.0,0.0,0.0,0.0,0.0,0.0,0.0,0.0,0.0,1.0,1.0,4.0,4.0,5.0,7.0,8.0,13.0,52.06228915,4.487754553694883
348,348,Zoeterwoude,0.0,0.0,0.0,0.0,0.0,0.0,0.0,0.0,0.0,0.0,0.0,0.0,0.0,0.0,0.0,0.0,0.0,0.0,0.0,0.0,1.0,1.0,52.11718945,4.503459502079346
349,349,Zuidplas,0.0,0.0,0.0,0.0,0.0,0.0,0.0,0.0,0.0,0.0,0.0,0.0,0.0,0.0,0.0,0.0,0.0,1.0,3.0,3.0,3.0,6.0,51.9995787,4.613450887425165
350,350,Zundert,0.0,0.0,0.0,0.0,1.0,1.0,1.0,2.0,2.0,3.0,3.0,3.0,3.0,4.0,6.0,6.0,7.0,7.0,7.0,9.0,11.0,14.0,51.4702197,4.6610472
351,351,Zutphen,0.0,0.0,0.0,0.0,0.0,0.0,0.0,0.0,0.0,0.0,0.0,0.0,0.0,1.0,1.0,1.0,2.0,4.0,4.0,6.0,6.0,8.0,52.129267600000006,6.205983813687771
352,352,Zwartewaterland,0.0,0.0,0.0,0.0,0.0,0.0,0.0,0.0,0.0,2.0,2.0,2.0,2.0,4.0,4.0,5.0,9.0,15.0,17.0,19.0,22.0,30.0,52.609919899999994,6.045522051921318
353,353,Zwijndrecht,0.0,0.0,0.0,0.0,0.0,0.0,0.0,0.0,0.0,0.0,2.0,3.0,3.0,4.0,5.0,6.0,6.0,6.0,6.0,6.0,8.0,9.0,51.82052005,4.625731518379531
354,354,Zwolle,0.0,0.0,0.0,0.0,1.0,1.0,1.0,2.0,2.0,2.0,3.0,4.0,6.0,8.0,12.0,16.0,18.0,23.0,28.0,35.0,40.0,47.0,52.5089759,6.0943765
